Z2,Heading,H1,needsInitialization,E1,RollGyr,EGyr3,TW,C2,A1,H2,T,W3a,H3,Z1,D2,Pitch,SmoothW2,C1,SmoothGroundSpeed,M1,EGyr1,TWa,EGyr2,Roll,GPSNACp,headingMag,EGyr0,SmoothW1,HeadingGPS,Ta,E0,GPSHorizontalAccuracy,BaroVerticalSpeed,Z3,E3,GroundSpeed,PitchGPS,slipSkid,turnRate,staticMode,EGPS3,A2,M2,C3,GPSFixQuality,W3,HeadingGyr,W2,GPSAltitudeMSL,BaroPressureAltitude,EGPS0,E2,B2,EGPS2,W2a,headingValid,B3,PitchGyr,M3,D1,A3,EGPS1,D3,B1,GPSVerticalAccuracy,W1,RollGPS,W1a,GPSTrueCourse,WValid,gLoad
-0.177199,0.014964,-0.141250,0.000000,0.098160,7.635350,0.706995,-6795364293.331345,0.048773,-0.140263,0.248777,-6795364293.251345,0.000000,-0.141626,-0.197920,0.636311,8.265526,0.000000,0.041263,0.000000,5530.649948,0.097395,-6795364293.331345,-0.003490,7.693616,8.000000,5.738434,0.700472,0.000000,0.000003,-6795364293.301345,0.700353,62.000000,2.148551,-0.952411,0.707007,0.000000,11.535458,-0.184582,-0.002159,1.000000,0.707081,-0.155095,3575.854492,-1.015683,1.000000,0.000000,0.016960,0.000000,66.272972,380.667328,0.694011,-0.003542,0.762963,-0.006064,0.000000,0.000000,0.640889,8.198651,-7306.250743,-1.326792,-0.984527,0.135456,0.508133,-1.590777,124.000000,0.000000,10.552657,0.000000,0.000000,0.000000,0.951477
-0.177611,0.018983,-0.161248,0.000000,0.098791,7.686419,0.706970,-6795364293.241345,0.048773,-0.141077,0.220234,-6795364293.201345,0.000000,-0.150089,-0.196933,0.636311,8.318692,0.000000,0.041263,0.000000,5598.372192,0.098043,-6795364293.331345,-0.003518,7.743772,8.000000,5.738837,0.700406,0.000000,0.000002,-6795364293.251345,0.700289,60.000000,2.148551,-0.952701,0.706982,0.000000,11.501280,-0.184571,-0.002159,1.000000,0.707083,-0.153284,3546.055705,-1.015683,1.000000,0.000000,0.020990,0.000000,66.272972,380.667328,0.694045,-0.003564,0.798568,-0.005820,0.000000,0.000000,0.661234,8.253610,-7335.949534,-1.326792,-0.984690,0.135282,0.508133,-1.541185,120.000000,0.000000,10.558026,0.000000,0.000000,0.000000,0.951612
-0.177770,0.021927,-0.181148,0.000000,0.099411,7.735432,0.706952,-6795364293.241345,0.048773,-0.141179,0.202010,-6795364293.151345,0.000000,-0.126595,-0.197045,0.636311,8.371820,0.000000,0.041263,0.000000,5598.372192,0.098674,-6795364293.241345,-0.003553,7.792083,8.000000,5.737271,0.700336,0.000000,0.000000,-6795364293.201345,0.700219,60.000000,1.395987,-0.951940,0.706964,0.000000,11.501275,-0.184589,-0.002159,1.000000,0.707084,-0.153935,3687.599945,-1.015683,1.000000,0.000000,0.023947,0.000000,66.272972,380.606934,0.694029,-0.003596,0.820185,-0.005735,0.000000,0.000000,0.625629,8.307831,-7373.073024,-1.326792,-0.983489,0.135366,0.508133,-1.525925,120.000000,0.000000,10.571924,0.000000,0.000000,0.000000,0.951612
-0.177602,0.025963,-0.157388,0.000000,0.100024,7.785099,0.706927,-6795364293.131345,0.048773,-0.140833,0.207838,-6795364293.101345,0.000000,-0.149973,-0.197215,0.636311,8.423530,0.000000,0.041263,0.000000,5628.470968,0.099299,-6795364293.241345,-0.003575,7.840659,8.000000,5.737424,0.700272,0.000000,0.000000,-6795364293.151345,0.700157,60.000000,1.395987,-0.952233,0.706939,0.000000,11.505977,-0.184559,-0.002159,1.000000,0.707083,-0.154098,3590.753886,-1.015683,1.000000,0.000000,0.028013,0.000000,60.367455,380.606934,0.694029,-0.003619,0.775679,-0.005794,0.000000,0.000000,0.666321,8.360508,-7335.949534,-1.326792,-0.984242,0.135364,0.508133,-1.543728,120.000000,0.000000,10.567001,0.000000,0.000000,0.000000,0.951687
-0.177628,0.029458,-0.143164,0.000000,0.100635,7.834318,0.706905,-6795364293.131345,0.048773,-0.140996,0.200526,-6795364293.051345,0.000000,-0.139121,-0.197910,0.636311,8.475331,0.000000,0.041263,0.000000,5620.946274,0.099918,-6795364293.131345,-0.003596,7.889010,8.000000,5.738312,0.700206,0.000000,359.999999,-6795364293.101345,0.700091,60.000000,2.446954,-0.951431,0.706918,0.000000,11.541379,-0.184568,-0.002159,1.000000,0.707082,-0.155095,3531.156311,-1.015683,1.000000,0.000000,0.031547,0.000000,60.367455,380.698578,0.693981,-0.003644,0.766778,-0.005977,0.000000,0.000000,0.640889,8.412649,-7306.250743,-1.326792,-0.983001,0.135613,0.508133,-1.529740,120.000000,0.000000,10.572698,0.000000,0.000000,0.000000,0.951627
-0.177457,0.032886,-0.134419,0.000000,0.101239,7.883102,0.706884,-6795364293.031345,0.048773,-0.140751,0.181434,-6795364293.001345,0.000000,-0.135393,-0.196805,0.636311,8.526445,0.000000,0.041263,0.000000,5553.224030,0.100538,-6795364293.131345,-0.003624,7.936784,8.000000,5.738972,0.700139,0.000000,360.000000,-6795364293.051345,0.700025,60.000000,2.446954,-0.950967,0.706897,0.000000,11.511982,-0.184556,-0.002159,1.000000,0.707083,-0.153203,3501.357524,-1.015683,1.000000,0.000000,0.034980,0.000000,60.367455,380.698578,0.694017,-0.003668,0.760420,-0.005807,0.000000,0.000000,0.640889,8.465416,-7335.949534,-1.326792,-0.982574,0.135425,0.508133,-1.505580,120.000000,0.000000,10.570942,0.000000,0.000000,0.000000,0.951541
-0.177742,0.036382,-0.138863,0.000000,0.101834,7.930670,0.706862,-6795364293.031345,0.048773,-0.141118,0.152582,-6795364292.951345,0.000000,-0.132995,-0.196616,0.636311,8.577296,0.000000,0.041263,0.000000,5508.075867,0.101150,-6795364293.031345,-0.003658,7.983329,8.000000,5.738479,0.700072,0.000000,359.999999,-6795364293.001345,0.699960,60.000000,1.574362,-0.952910,0.706875,0.000000,11.479762,-0.184538,-0.002159,1.000000,0.707084,-0.153264,3553.505402,-1.015683,1.000000,0.000000,0.038481,0.000000,60.367455,380.628479,0.694060,-0.003697,0.770592,-0.005631,0.000000,0.000000,0.640889,8.517972,-7417.621211,-1.326792,-0.985626,0.135207,0.508133,-1.472518,120.000000,0.000000,10.567273,0.000000,0.000000,0.000000,0.951761
-0.177059,0.040462,-0.149691,0.000000,0.102411,7.976769,0.706837,-6795364292.931345,0.048773,-0.140060,0.146978,-6795364292.901345,0.000000,-0.144430,-0.196694,0.636311,8.627264,0.000000,0.041263,0.000000,5508.075867,0.101743,-6795364293.031345,-0.003692,8.027992,8.000000,5.737910,0.700011,0.000000,360.000000,-6795364292.951345,0.699901,58.000000,1.574362,-0.952508,0.706850,0.000000,11.477390,-0.184437,-0.002159,1.000000,0.707083,-0.153528,3560.955098,-1.015683,1.000000,0.000000,0.042583,0.000000,60.367455,380.628479,0.694093,-0.003734,0.783308,-0.005775,0.000000,0.000000,0.658691,8.569016,-7350.798930,-1.326792,-0.984161,0.135036,0.508133,-1.477605,116.000000,0.000000,10.541451,0.000000,0.000000,0.000000,0.951819
-0.176820,0.044393,-0.149194,0.000000,0.102978,8.021446,0.706813,-6795364292.931345,0.048773,-0.140019,0.157929,-6795364292.851345,0.000000,-0.144095,-0.197743,0.636311,8.676575,0.000000,0.041263,0.000000,5440.353622,0.102317,-6795364292.931345,-0.003725,8.071479,8.000000,5.735986,0.699952,0.000000,0.000002,-6795364292.901345,0.699842,58.000000,1.543492,-0.952172,0.706826,0.000000,11.521450,-0.184346,-0.002159,1.000000,0.707080,-0.155034,3620.552673,-1.015683,1.000000,0.000000,0.046562,0.000000,60.367455,380.628479,0.694059,-0.003774,0.778222,-0.006139,0.000000,0.000000,0.652333,8.618439,-7373.073024,-1.326792,-0.983917,0.135213,0.508133,-1.495407,116.000000,0.000000,10.526501,0.000000,0.000000,0.000000,0.951840
-0.177436,0.046683,-0.152362,0.000000,0.103545,8.066059,0.706799,-6795364292.841345,0.048773,-0.141036,0.191706,-6795364292.811345,0.000000,-0.138832,-0.197345,0.636311,8.725328,0.000000,0.041263,0.000000,5538.174642,0.102893,-6795364292.931345,-0.003759,8.115669,8.000000,5.735924,0.699882,0.000000,0.000001,-6795364292.851345,0.699772,58.000000,1.543492,-0.951796,0.706812,0.000000,11.520890,-0.184372,-0.002159,1.000000,0.707081,-0.154017,3560.955098,-1.015683,1.000000,0.000000,0.048867,0.000000,60.367455,380.628479,0.694032,-0.003804,0.783308,-0.005991,0.000000,0.000000,0.643432,8.668203,-7350.798930,-1.326792,-0.983510,0.135351,0.508133,-1.538642,116.000000,0.000000,10.549939,0.000000,0.000000,0.000000,0.951819
-0.177251,0.053023,-0.172803,0.000000,0.104046,8.106605,0.706759,-6795364292.841345,0.048773,-0.140507,0.202173,-6795364292.751345,0.000000,-0.172007,-0.196786,0.636311,8.767699,0.000000,0.041263,0.000000,5643.520355,0.103407,-6795364292.841345,-0.003785,8.155430,8.000000,5.738089,0.699846,0.000000,0.000000,-6795364292.811345,0.699737,58.000000,2.058741,-0.951580,0.706773,0.000000,11.500485,-0.184345,-0.002159,1.000000,0.707083,-0.153386,3464.109039,-1.015683,1.000000,0.000000,0.055288,0.000000,60.367455,380.674866,0.694054,-0.003826,0.808741,-0.005858,0.000000,0.000000,0.694296,8.711863,-7328.524836,-1.326792,-0.983306,0.135235,0.508133,-1.541185,116.000000,0.000000,10.551103,0.000000,0.000000,0.000000,0.951786
-0.177603,0.057608,-0.146160,0.000000,0.104568,8.149175,0.706731,-6795364292.731345,0.048773,-0.141118,0.205964,-6795364292.701345,0.000000,-0.167505,-0.196672,0.636311,8.811098,0.000000,0.041263,0.000000,5628.470968,0.103938,-6795364292.841345,-0.003801,8.197505,8.000000,5.739609,0.699796,0.000000,0.000001,-6795364292.751345,0.699687,58.000000,2.058741,-0.951187,0.706745,0.000000,11.492454,-0.184388,-0.002159,1.000000,0.707084,-0.153488,3486.458130,-1.015683,1.000000,0.000000,0.059933,0.000000,60.367455,380.674866,0.694043,-0.003839,0.762963,-0.005700,0.000000,0.000000,0.671407,8.756317,-7350.798930,-1.326792,-0.982859,0.135293,0.508133,-1.541185,116.000000,0.000000,10.568761,0.000000,0.000000,0.000000,0.951709
-0.178233,0.061625,-0.132290,0.000000,0.105087,8.191868,0.706706,-6795364292.731345,0.048773,-0.141850,0.191525,-6795364292.651345,0.000000,-0.155100,-0.196089,0.636311,8.853809,0.000000,0.041263,0.000000,5530.649948,0.104468,-6795364292.731345,-0.003814,8.239902,8.000000,5.738913,0.699742,0.000000,0.000003,-6795364292.701345,0.699634,58.000000,1.193761,-0.951593,0.706720,0.000000,11.462671,-0.184489,-0.002159,1.000000,0.707087,-0.152654,3575.854492,-1.015683,1.000000,0.000000,0.063994,0.000000,60.367455,380.604767,0.694045,-0.003845,0.755333,-0.005344,0.000000,0.000000,0.656148,8.800514,-7350.798930,-1.326792,-0.983612,0.135281,0.508133,-1.518296,116.000000,0.000000,10.596623,0.000000,0.000000,0.000000,0.951715
-0.178338,0.065440,-0.135588,0.000000,0.105585,8.234082,0.706683,-6795364292.641345,0.048773,-0.141769,0.233225,-6795364292.601345,0.000000,-0.158244,-0.196287,0.636311,8.893681,0.000000,0.041263,0.000000,5462.927704,0.104974,-6795364292.731345,-0.003808,8.281615,8.000000,5.737504,0.699690,0.000000,0.000001,-6795364292.651345,0.699583,56.000000,1.193761,-0.951013,0.706697,0.000000,11.466045,-0.184586,-0.002159,1.000000,0.707087,-0.153244,3590.753886,-1.015683,1.000000,0.000000,0.067859,0.000000,60.039368,380.604767,0.694021,-0.003837,0.765506,-0.005260,0.000000,0.000000,0.663778,8.841135,-7380.497721,-1.326792,-0.982615,0.135405,0.508133,-1.584419,112.000000,0.000000,10.613691,0.000000,0.000000,0.000000,0.951620
-0.178009,0.070217,-0.130136,0.000000,0.106086,8.276230,0.706653,-6795364292.641345,0.048773,-0.141179,0.196168,-6795364292.551345,0.000000,-0.173534,-0.197043,0.636311,8.934922,0.000000,0.041263,0.000000,5485.501785,0.105485,-6795364292.641345,-0.003809,8.322618,8.000000,5.737893,0.699643,0.000000,0.000002,-6795364292.601345,0.699536,56.000000,1.170354,-0.951928,0.706668,0.000000,11.490358,-0.184592,-0.002159,1.000000,0.707085,-0.154180,3486.458130,-1.015683,1.000000,0.000000,0.072701,0.000000,60.039368,380.604767,0.694010,-0.003843,0.755333,-0.005504,0.000000,0.000000,0.686666,8.882726,-7373.073024,-1.326792,-0.984222,0.135460,0.508133,-1.514481,112.000000,0.000000,10.598432,0.000000,0.000000,0.000000,0.951690
-0.177659,0.074024,-0.136190,0.000000,0.106575,8.316789,0.706630,-6795364292.531345,0.048773,-0.140833,0.181616,-6795364292.501345,0.000000,-0.152640,-0.196163,0.636311,8.975639,0.000000,0.041263,0.000000,5583.322805,0.105989,-6795364292.641345,-0.003823,8.361993,8.000000,5.738460,0.699590,0.000000,359.999999,-6795364292.551345,0.699485,56.000000,1.170354,-0.951916,0.706645,0.000000,11.463278,-0.184569,-0.002159,1.000000,0.707086,-0.152593,3531.156311,-1.015683,1.000000,0.000000,0.076531,0.000000,60.039368,380.604767,0.694065,-0.003855,0.768049,-0.005452,0.000000,0.000000,0.651062,8.924832,-7425.045909,-1.326792,-0.983713,0.135183,0.508133,-1.508123,112.000000,0.000000,10.579676,0.000000,0.000000,0.000000,0.951712
-0.177538,0.077585,-0.137322,0.000000,0.107050,8.356081,0.706608,-6795364292.531345,0.048773,-0.140812,0.194894,-6795364292.451345,0.000000,-0.150689,-0.196904,0.636311,9.015347,0.000000,0.041263,0.000000,5620.946274,0.106473,-6795364292.531345,-0.003831,8.400303,8.000000,5.738655,0.699539,0.000000,0.000000,-6795364292.501345,0.699435,56.000000,1.502623,-0.951836,0.706623,0.000000,11.485448,-0.184548,-0.002159,1.000000,0.707084,-0.154057,3575.854492,-1.015683,1.000000,0.000000,0.080136,0.000000,60.039368,380.634949,0.694050,-0.003868,0.766778,-0.005650,0.000000,0.000000,0.656148,8.964902,-7395.347117,-1.326792,-0.983673,0.135257,0.508133,-1.533555,112.000000,0.000000,10.569754,0.000000,0.000000,0.000000,0.951721
-0.177262,0.080617,-0.150674,0.000000,0.107507,8.393648,0.706589,-6795364292.431345,0.048773,-0.140467,0.208060,-6795364292.401345,0.000000,-0.142718,-0.196817,0.636311,9.053753,0.000000,0.041263,0.000000,5568.273417,0.106941,-6795364292.531345,-0.003844,8.436845,8.000000,5.737342,0.699486,0.000000,0.000000,-6795364292.451345,0.699383,56.000000,1.502623,-0.951781,0.706605,0.000000,11.489472,-0.184495,-0.002159,1.000000,0.707083,-0.153610,3650.351461,-1.015683,1.000000,0.000000,0.083194,0.000000,60.039368,380.634949,0.694062,-0.003882,0.785852,-0.005760,0.000000,0.000000,0.645975,9.004013,-7321.100138,-1.326792,-0.983591,0.135197,0.508133,-1.546271,112.000000,0.000000,10.555955,0.000000,0.000000,0.000000,0.951725
-0.177706,0.084870,-0.161192,0.000000,0.107965,8.429871,0.706563,-6795364292.431345,0.048773,-0.141240,0.180723,-6795364292.351345,0.000000,-0.164607,-0.197301,0.636311,9.092976,0.000000,0.041263,0.000000,5530.649948,0.107403,-6795364292.431345,-0.003869,8.472652,8.000000,5.738130,0.699442,0.000000,359.999999,-6795364292.401345,0.699339,56.000000,1.473160,-0.951606,0.706579,0.000000,11.510687,-0.184528,-0.002159,1.000000,0.707083,-0.154363,3486.458130,-1.015683,1.000000,0.000000,0.087519,0.000000,60.039368,380.634949,0.694019,-0.003908,0.793481,-0.005797,0.000000,0.000000,0.682852,9.043607,-7373.073024,-1.326792,-0.983428,0.135418,0.508133,-1.503037,112.000000,0.000000,10.571224,0.000000,0.000000,0.000000,0.951705
-0.177749,0.089281,-0.150134,0.000000,0.108411,8.466270,0.706535,-6795364292.331345,0.048773,-0.141077,0.201018,-6795364292.301345,0.000000,-0.172122,-0.197319,0.636311,9.130431,0.000000,0.041263,0.000000,5508.075867,0.107857,-6795364292.431345,-0.003885,8.508377,8.000000,5.736573,0.699399,0.000000,360.000000,-6795364292.351345,0.699297,56.000000,1.473160,-0.952097,0.706552,0.000000,11.513771,-0.184529,-0.002159,1.000000,0.707083,-0.154139,3635.452067,-1.015683,1.000000,0.000000,0.091992,0.000000,60.039368,380.634949,0.694012,-0.003923,0.773136,-0.005800,0.000000,0.000000,0.681580,9.081767,-7380.497721,-1.326792,-0.984202,0.135453,0.508133,-1.543728,112.000000,0.000000,10.573825,0.000000,0.000000,0.000000,0.951766
-0.177998,0.093268,-0.139041,0.000000,0.108862,8.502496,0.706511,-6795364292.331345,0.048773,-0.141423,0.173816,-6795364292.251345,0.000000,-0.160910,-0.197518,0.636311,9.168682,0.000000,0.041263,0.000000,5508.075867,0.108315,-6795364292.331345,-0.003905,8.544084,8.000000,5.734754,0.699353,0.000000,360.000000,-6795364292.301345,0.699251,56.000000,2.243515,-0.952197,0.706527,0.000000,11.521442,-0.184567,-0.002159,1.000000,0.707083,-0.154424,3665.250854,-1.015683,1.000000,0.000000,0.096038,0.000000,60.039368,380.702911,0.693991,-0.003943,0.762963,-0.005785,0.000000,0.000000,0.663778,9.120646,-7350.798930,-1.326792,-0.984161,0.135561,0.508133,-1.495407,112.000000,0.000000,10.583997,0.000000,0.000000,0.000000,0.951813
-0.178063,0.095115,-0.152852,0.000000,0.109315,8.538706,0.706499,-6795364292.241345,0.048773,-0.141443,0.185800,-6795364292.211345,0.000000,-0.143273,-0.196934,0.636311,9.207382,0.000000,0.041263,0.000000,5568.273417,0.108779,-6795364292.331345,-0.003930,8.579765,8.000000,5.734052,0.699293,0.000000,0.000000,-6795364292.251345,0.699192,54.000000,2.243515,-0.951669,0.706516,0.000000,11.504644,-0.184614,-0.002159,1.000000,0.707084,-0.153528,3635.452067,-1.015683,1.000000,0.000000,0.097891,0.000000,60.039368,380.702911,0.693999,-0.003964,0.788395,-0.005621,0.000000,0.000000,0.643432,9.160481,-7380.497721,-1.326792,-0.983306,0.135518,0.508133,-1.523382,108.000000,0.000000,10.593710,0.000000,0.000000,0.000000,0.951776
-0.177477,0.100872,-0.167615,0.000000,0.109706,8.571086,0.706464,-6795364292.241345,0.048773,-0.140507,0.200401,-6795364292.151345,0.000000,-0.173595,-0.197336,0.636311,9.240281,0.000000,0.041263,0.000000,5733.816681,0.109180,-6795364292.241345,-0.003942,8.610966,8.000000,5.735261,0.699266,0.000000,0.000001,-6795364292.211345,0.699166,54.000000,2.199524,-0.952433,0.706481,0.000000,11.510365,-0.184544,-0.002159,1.000000,0.707083,-0.154302,3598.203583,-1.015683,1.000000,0.000000,0.103732,0.000000,60.039368,380.702911,0.694024,-0.003980,0.801111,-0.005821,0.000000,0.000000,0.694296,9.193939,-7239.428462,-1.326792,-0.984649,0.135391,0.508133,-1.541185,108.000000,0.000000,10.566952,0.000000,0.000000,0.000000,0.951874
-0.177878,0.103845,-0.161547,0.000000,0.110112,8.603832,0.706445,-6795364292.141345,0.048773,-0.141362,0.213270,-6795364292.101345,0.000000,-0.149649,-0.197779,0.636311,9.274648,0.000000,0.041263,0.000000,5583.322805,0.109591,-6795364292.241345,-0.003957,8.643234,8.000000,5.735442,0.699221,0.000000,360.000000,-6795364292.151345,0.699121,54.000000,2.199524,-0.952371,0.706463,0.000000,11.529577,-0.184572,-0.002159,1.000000,0.707082,-0.154790,3575.854492,-1.015683,1.000000,0.000000,0.106751,0.000000,62.335960,380.702911,0.693991,-0.003996,0.788395,-0.005886,0.000000,0.000000,0.645975,9.228618,-7335.949534,-1.326792,-0.984283,0.135560,0.508133,-1.551358,108.000000,0.000000,10.575722,0.000000,0.000000,0.000000,0.951921
-0.177948,0.107081,-0.147857,0.000000,0.110520,8.636838,0.706425,-6795364292.141345,0.048773,-0.141362,0.206841,-6795364292.051345,0.000000,-0.155103,-0.197851,0.636311,9.308969,0.000000,0.041263,0.000000,5620.946274,0.110003,-6795364292.141345,-0.003971,8.675885,8.000000,5.737815,0.699176,0.000000,359.999999,-6795364292.101345,0.699076,54.000000,3.069815,-0.951095,0.706443,0.000000,11.548308,-0.184624,-0.002159,1.000000,0.707082,-0.154790,3441.759949,-1.015683,1.000000,0.000000,0.110040,0.000000,62.335960,380.780548,0.693951,-0.004010,0.770592,-0.005908,0.000000,0.000000,0.663778,9.263258,-7417.621211,-1.326792,-0.982452,0.135765,0.508133,-1.537370,108.000000,0.000000,10.590881,0.000000,0.000000,0.000000,0.951784
-0.177633,0.110982,-0.124573,0.000000,0.110931,8.670772,0.706401,-6795364292.041345,0.048773,-0.140873,0.182317,-6795364292.001345,0.000000,-0.165659,-0.197091,0.636311,9.343275,0.000000,0.041263,0.000000,5568.273417,0.110426,-6795364292.141345,-0.003985,8.709027,8.000000,5.737413,0.699134,0.000000,359.999999,-6795364292.051345,0.699035,54.000000,3.069815,-0.950764,0.706419,0.000000,11.526782,-0.184621,-0.002159,1.000000,0.707083,-0.153651,3590.753886,-1.015683,1.000000,0.000000,0.113986,0.000000,62.335960,380.780548,0.693983,-0.004021,0.742617,-0.005811,0.000000,0.000000,0.676494,9.298708,-7350.798930,-1.326792,-0.982452,0.135600,0.508133,-1.505580,108.000000,0.000000,10.585126,0.000000,0.000000,0.000000,0.951668
-0.177909,0.114211,-0.157986,0.000000,0.111318,8.702147,0.706381,-6795364292.041345,0.048773,-0.141423,0.203000,-6795364291.951345,0.000000,-0.156433,-0.197092,0.636311,9.375867,0.000000,0.041263,0.000000,5508.075867,0.110820,-6795364292.041345,-0.004000,8.740011,8.000000,5.737403,0.699091,0.000000,360.000000,-6795364292.001345,0.698993,54.000000,2.185008,-0.950470,0.706400,0.000000,11.522284,-0.184677,-0.002159,1.000000,0.707084,-0.153996,3531.156311,-1.015683,1.000000,0.000000,0.117261,0.000000,62.335960,380.710449,0.693975,-0.004035,0.801111,-0.005710,0.000000,0.000000,0.659963,9.332059,-7462.169398,-1.326792,-0.982208,0.135644,0.508133,-1.545000,108.000000,0.000000,10.596901,0.000000,0.000000,0.000000,0.951536
-0.177505,0.117335,-0.187573,0.000000,0.111688,8.731642,0.706362,-6795364291.941345,0.048773,-0.140589,0.188713,-6795364291.901345,0.000000,-0.152785,-0.197237,0.636311,9.408292,0.000000,0.041263,0.000000,5598.372192,0.111203,-6795364292.041345,-0.004027,8.768348,8.000000,5.737516,0.699050,0.000000,359.999999,-6795364291.951345,0.698953,54.000000,2.185008,-0.952526,0.706380,0.000000,11.510932,-0.184599,-0.002159,1.000000,0.707083,-0.154057,3575.854492,-1.015683,1.000000,0.000000,0.120412,0.000000,62.335960,380.710449,0.694022,-0.004063,0.829086,-0.005816,0.000000,0.000000,0.661234,9.365380,-7395.347117,-1.326792,-0.985300,0.135402,0.508133,-1.515753,108.000000,0.000000,10.568335,0.000000,0.000000,0.000000,0.951723
-0.177623,0.120571,-0.168965,0.000000,0.112056,8.760937,0.706342,-6795364291.941345,0.048773,-0.140996,0.180797,-6795364291.851345,0.000000,-0.154646,-0.196729,0.636311,9.440014,0.000000,0.041263,0.000000,5598.372192,0.111581,-6795364291.941345,-0.004053,8.797039,8.000000,5.737309,0.699010,0.000000,360.000000,-6795364291.901345,0.698914,54.000000,2.142165,-0.952164,0.706361,0.000000,11.490039,-0.184590,-0.002159,1.000000,0.707084,-0.153325,3598.203583,-1.015683,1.000000,0.000000,0.123685,0.000000,62.335960,380.710449,0.694048,-0.004085,0.789666,-0.005694,0.000000,0.000000,0.663778,9.398179,-7395.347117,-1.326792,-0.983856,0.135270,0.508133,-1.510666,108.000000,0.000000,10.567319,0.000000,0.000000,0.000000,0.951751
-0.177367,0.123799,-0.146391,0.000000,0.112425,8.790766,0.706322,-6795364291.841345,0.048773,-0.140548,0.171379,-6795364291.801345,0.000000,-0.153949,-0.196960,0.636311,9.471578,0.000000,0.041263,0.000000,5613.421580,0.111959,-6795364291.941345,-0.004071,8.826015,8.000000,5.738758,0.698969,0.000000,360.000000,-6795364291.851345,0.698875,52.000000,2.142165,-0.952456,0.706341,0.000000,11.491025,-0.184529,-0.002159,1.000000,0.707083,-0.153854,3486.458130,-1.015683,1.000000,0.000000,0.126954,0.000000,62.335960,380.710449,0.694062,-0.004105,0.765506,-0.005780,0.000000,0.000000,0.661234,9.430369,-7276.551951,-1.326792,-0.984446,0.135197,0.508133,-1.500493,104.000000,0.000000,10.554395,0.000000,0.000000,0.000000,0.951834
-0.177880,0.128038,-0.168472,0.000000,0.112771,8.818818,0.706296,-6795364291.841345,0.048773,-0.141362,0.195967,-6795364291.751345,0.000000,-0.179335,-0.196700,0.636311,9.500780,0.000000,0.041263,0.000000,5530.649948,0.112313,-6795364291.841345,-0.004088,8.853724,8.000000,5.739083,0.698939,0.000000,0.000001,-6795364291.801345,0.698845,52.000000,3.533724,-0.953264,0.706315,0.000000,11.473804,-0.184539,-0.002159,1.000000,0.707085,-0.153325,3508.807220,-1.015683,1.000000,0.000000,0.131259,0.000000,62.335960,380.832306,0.694069,-0.004119,0.804926,-0.005607,0.000000,0.000000,0.698111,9.460521,-7350.798930,-1.326792,-0.985504,0.135159,0.508133,-1.541185,104.000000,0.000000,10.565220,0.000000,0.000000,0.000000,0.952012
-0.177067,0.129888,-0.146018,0.000000,0.113136,8.848721,0.706284,-6795364291.731345,0.048773,-0.140060,0.192156,-6795364291.711345,0.000000,-0.156675,-0.196287,0.636311,9.531669,0.000000,0.041263,0.000000,6930.242996,0.112689,-6795364291.841345,-0.004102,8.882657,8.000000,5.737573,0.698890,0.000000,360.000000,-6795364291.751345,0.698798,52.000000,3.533724,-0.951795,0.706304,0.000000,11.465084,-0.184455,-0.002159,1.000000,0.707084,-0.152959,4559.214478,-1.015683,1.000000,0.000000,0.133117,0.000000,62.335960,380.832306,0.694102,-0.004133,0.765506,-0.005668,0.000000,0.000000,0.653605,9.492221,-9199.635709,-1.326792,-0.982940,0.134993,0.508133,-1.523382,104.000000,0.000000,10.546527,0.000000,0.000000,0.000000,0.951927
-0.177446,0.134943,-0.154497,0.000000,0.113451,8.874774,0.706253,-6795364291.731345,0.048773,-0.140996,0.194629,-6795364291.651345,0.000000,-0.169808,-0.196390,0.636311,9.557653,0.000000,0.041263,0.000000,4590.063222,0.113008,-6795364291.731345,-0.004109,8.908537,8.000000,5.734652,0.698870,0.000000,359.999999,-6795364291.711345,0.698778,52.000000,3.464435,-0.950814,0.706273,0.000000,11.473783,-0.184484,-0.002159,1.000000,0.707084,-0.153325,3113.973287,-1.015683,1.000000,0.000000,0.138267,0.000000,62.335960,380.832306,0.694071,-0.004139,0.785852,-0.005615,0.000000,0.000000,0.682852,9.518559,-6043.994098,-1.326792,-0.982208,0.135150,0.508133,-1.529740,104.000000,0.000000,10.563811,0.000000,0.000000,0.000000,0.951774
-0.177854,0.139048,-0.160883,0.000000,0.113788,8.901739,0.706227,-6795364291.641345,0.048773,-0.141402,0.188892,-6795364291.601345,0.000000,-0.179543,-0.197025,0.636311,9.585999,0.000000,0.041263,0.000000,5523.125254,0.113344,-6795364291.731345,-0.004122,8.935395,8.000000,5.734392,0.698841,0.000000,359.999998,-6795364291.651345,0.698748,52.000000,3.464435,-0.950843,0.706248,0.000000,11.500827,-0.184545,-0.002159,1.000000,0.707084,-0.154180,3575.854492,-1.015683,1.000000,0.000000,0.142454,0.000000,62.992130,380.832306,0.694013,-0.004153,0.790938,-0.005649,0.000000,0.000000,0.691753,9.546933,-7365.648326,-1.326792,-0.982737,0.135445,0.508133,-1.520839,104.000000,0.000000,10.585407,0.000000,0.000000,0.000000,0.951682
-0.178426,0.140789,-0.170067,0.000000,0.114120,8.927752,0.706217,-6795364291.641345,0.048773,-0.141972,0.168811,-6795364291.551345,0.000000,-0.129638,-0.196612,0.636311,9.614709,0.000000,0.041263,0.000000,5575.798111,0.113684,-6795364291.641345,-0.004147,8.961261,8.000000,5.735243,0.698797,0.000000,0.000001,-6795364291.601345,0.698705,52.000000,3.396505,-0.952306,0.706237,0.000000,11.480050,-0.184625,-0.002159,1.000000,0.707086,-0.153203,3531.156311,-1.015683,1.000000,0.000000,0.144213,0.000000,62.992130,380.832306,0.694016,-0.004172,0.804926,-0.005406,0.000000,0.000000,0.618000,9.576655,-7417.621211,-1.326792,-0.984832,0.135432,0.508133,-1.491592,104.000000,0.000000,10.604041,0.000000,0.000000,0.000000,0.951807
-0.178014,0.143286,-0.184282,0.000000,0.114434,8.953041,0.706201,-6795364291.531345,0.048773,-0.141158,0.192542,-6795364291.501345,0.000000,-0.149219,-0.196936,0.636311,9.641715,0.000000,0.041263,0.000000,5538.174642,0.114005,-6795364291.641345,-0.004163,8.985847,8.000000,5.734837,0.698760,0.000000,0.000001,-6795364291.551345,0.698668,52.000000,3.396505,-0.952145,0.706222,0.000000,11.488588,-0.184628,-0.002159,1.000000,0.707085,-0.153895,3590.753886,-1.015683,1.000000,0.000000,0.146744,0.000000,62.992130,380.832306,0.694018,-0.004190,0.818913,-0.005520,0.000000,0.000000,0.666321,9.604038,-7335.949534,-1.326792,-0.983957,0.135423,0.508133,-1.536098,104.000000,0.000000,10.594095,0.000000,0.000000,0.000000,0.951834
-0.177475,0.144041,-0.126092,0.000000,0.114754,8.980247,0.706197,-6795364291.531345,0.048773,-0.140568,0.204917,-6795364291.451345,0.000000,-0.116385,-0.197051,0.636311,9.668031,0.000000,0.041263,0.000000,5485.501785,0.114332,-6795364291.531345,-0.004161,9.012053,8.000000,5.734862,0.698711,0.000000,0.000001,-6795364291.501345,0.698621,52.000000,3.038120,-0.951874,0.706218,0.000000,11.498656,-0.184577,-0.002159,1.000000,0.707084,-0.153935,3531.156311,-1.015683,1.000000,0.000000,0.147493,0.000000,62.992130,380.807495,0.694033,-0.004192,0.732444,-0.005723,0.000000,0.000000,0.606555,9.630686,-7373.073024,-1.326792,-0.983612,0.135346,0.508133,-1.541185,104.000000,0.000000,10.571237,0.000000,0.000000,0.000000,0.951826
-0.177653,0.145725,-0.156582,0.000000,0.115050,9.005090,0.706186,-6795364291.441345,0.048773,-0.141077,0.233902,-6795364291.401345,0.000000,-0.140046,-0.197016,0.636311,9.692318,0.000000,0.041263,0.000000,5508.075867,0.114634,-6795364291.531345,-0.004162,9.036462,8.000000,5.733432,0.698672,0.000000,0.000000,-6795364291.451345,0.698582,52.000000,3.038120,-0.951516,0.706207,0.000000,11.502872,-0.184588,-0.002159,1.000000,0.707084,-0.153854,3650.351461,-1.015683,1.000000,0.000000,0.149199,0.000000,62.992130,380.807495,0.694024,-0.004193,0.798568,-0.005730,0.000000,0.000000,0.656148,9.655383,-7395.347117,-1.326792,-0.983225,0.135390,0.508133,-1.579333,104.000000,0.000000,10.574315,0.000000,0.000000,0.000000,0.951780
-0.177473,0.146582,-0.147839,0.000000,0.115333,9.029798,0.706181,-6795364291.441345,0.048773,-0.140690,0.256806,-6795364291.351345,0.000000,-0.127175,-0.196681,0.636311,9.714755,0.000000,0.041263,0.000000,5598.372192,0.114926,-6795364291.441345,-0.004154,9.060438,8.000000,5.733627,0.698629,0.000000,359.999999,-6795364291.401345,0.698541,52.000000,4.335996,-0.952247,0.706202,0.000000,11.485287,-0.184542,-0.002159,1.000000,0.707084,-0.153325,3598.203583,-1.015683,1.000000,0.000000,0.150051,0.000000,62.992130,380.922882,0.694059,-0.004185,0.774407,-0.005695,0.000000,0.000000,0.625629,9.678638,-7373.073024,-1.326792,-0.984405,0.135211,0.508133,-1.598407,104.000000,0.000000,10.562375,0.000000,0.000000,0.000000,0.951858
-0.177354,0.148456,-0.157716,0.000000,0.115618,9.053458,0.706170,-6795364291.341345,0.048773,-0.140629,0.221008,-6795364291.301345,0.000000,-0.142384,-0.196945,0.636311,9.738520,0.000000,0.041263,0.000000,5538.174642,0.115217,-6795364291.441345,-0.004159,9.083512,8.000000,5.734206,0.698593,0.000000,360.000000,-6795364291.351345,0.698505,50.000000,4.335996,-0.951890,0.706191,0.000000,11.493531,-0.184506,-0.002159,1.000000,0.707083,-0.153895,3531.156311,-1.015683,1.000000,0.000000,0.151950,0.000000,62.992130,380.922882,0.694056,-0.004192,0.790938,-0.005781,0.000000,0.000000,0.656148,9.702721,-7321.100138,-1.326792,-0.983591,0.135226,0.508133,-1.538642,100.000000,0.000000,10.556671,0.000000,0.000000,0.000000,0.951846
-0.177344,0.149815,-0.148193,0.000000,0.115908,9.076925,0.706161,-6795364291.341345,0.048773,-0.140690,0.194129,-6795364291.251345,0.000000,-0.128160,-0.196698,0.636311,9.763151,0.000000,0.041263,0.000000,5575.798111,0.115513,-6795364291.341345,-0.004172,9.106545,8.000000,5.734405,0.698552,0.000000,0.000000,-6795364291.301345,0.698465,50.000000,4.606197,-0.951391,0.706183,0.000000,11.490130,-0.184488,-0.002159,1.000000,0.707083,-0.153447,3575.854492,-1.015683,1.000000,0.000000,0.153322,0.000000,62.992130,380.953064,0.694058,-0.004203,0.774407,-0.005750,0.000000,0.000000,0.629444,9.727924,-7261.702555,-1.326792,-0.983001,0.135216,0.508133,-1.514481,100.000000,0.000000,10.558337,0.000000,0.000000,0.000000,0.951779
-0.177705,0.152522,-0.145948,0.000000,0.116194,9.100308,0.706145,-6795364291.231345,0.048773,-0.141240,0.189248,-6795364291.201345,0.000000,-0.155208,-0.196131,0.636311,9.786907,0.000000,0.041263,0.000000,5568.273417,0.115805,-6795364291.341345,-0.004183,9.129838,8.000000,5.734348,0.698521,0.000000,0.000001,-6795364291.251345,0.698434,50.000000,4.606197,-0.950900,0.706166,0.000000,11.469903,-0.184534,-0.002159,1.000000,0.707085,-0.152755,3590.753886,-1.015683,1.000000,0.000000,0.156071,0.000000,62.992130,380.953064,0.694060,-0.004209,0.773136,-0.005508,0.000000,0.000000,0.673950,9.752580,-7365.648326,-1.326792,-0.982493,0.135208,0.508133,-1.520839,100.000000,0.000000,10.577255,0.000000,0.000000,0.000000,0.951670
-0.178368,0.155349,-0.169942,0.000000,0.116473,9.122434,0.706127,-6795364291.231345,0.048773,-0.141972,0.180849,-6795364291.151345,0.000000,-0.157398,-0.196622,0.636311,9.810653,0.000000,0.041263,0.000000,5508.075867,0.116087,-6795364291.231345,-0.004198,9.152012,8.000000,5.733366,0.698492,0.000000,0.000000,-6795364291.201345,0.698405,50.000000,4.515880,-0.951974,0.706149,0.000000,11.473863,-0.184622,-0.002159,1.000000,0.707086,-0.153630,3620.552673,-1.015683,1.000000,0.000000,0.158951,0.000000,62.992130,380.953064,0.694026,-0.004222,0.808741,-0.005381,0.000000,0.000000,0.667592,9.776731,-7350.798930,-1.326792,-0.984344,0.135380,0.508133,-1.510666,100.000000,0.000000,10.601753,0.000000,0.000000,0.000000,0.951746
-0.178071,0.157785,-0.152108,0.000000,0.116743,9.145442,0.706112,-6795364291.131345,0.048773,-0.141240,0.217643,-6795364291.101345,0.000000,-0.156395,-0.197156,0.636311,9.832526,0.000000,0.041263,0.000000,5553.224030,0.116360,-6795364291.231345,-0.004195,9.174390,8.000000,5.732240,0.698461,0.000000,0.000001,-6795364291.151345,0.698375,50.000000,4.515880,-0.952480,0.706134,0.000000,11.492718,-0.184625,-0.002159,1.000000,0.707085,-0.154180,3665.250854,-1.015683,1.000000,0.000000,0.161427,0.000000,62.664043,380.953064,0.694014,-0.004222,0.773136,-0.005551,0.000000,0.000000,0.661234,9.798666,-7291.401347,-1.326792,-0.984608,0.135442,0.508133,-1.566617,100.000000,0.000000,10.593159,0.000000,0.000000,0.000000,0.951842
-0.177812,0.160811,-0.161530,0.000000,0.117010,9.167461,0.706093,-6795364291.131345,0.048773,-0.140996,0.202383,-6795364291.051345,0.000000,-0.166803,-0.197649,0.636311,9.855115,0.000000,0.041263,0.000000,5553.224030,0.116631,-6795364291.131345,-0.004201,9.195695,8.000000,5.732480,0.698435,0.000000,0.000002,-6795364291.101345,0.698349,50.000000,5.505683,-0.952567,0.706116,0.000000,11.517680,-0.184605,-0.002159,1.000000,0.707083,-0.154668,3575.854492,-1.015683,1.000000,0.000000,0.164505,0.000000,62.664043,381.044739,0.694001,-0.004233,0.793481,-0.005790,0.000000,0.000000,0.679037,9.821207,-7373.073024,-1.326792,-0.984527,0.135510,0.508133,-1.529740,100.000000,0.000000,10.579377,0.000000,0.000000,0.000000,0.951918
-0.177618,0.162599,-0.146994,0.000000,0.117272,9.189285,0.706082,-6795364291.041345,0.048773,-0.140873,0.201630,-6795364291.001345,0.000000,-0.142373,-0.196670,0.636311,9.876965,0.000000,0.041263,0.000000,5628.470968,0.116903,-6795364291.131345,-0.004210,9.216950,8.000000,5.732313,0.698401,0.000000,360.000000,-6795364291.051345,0.698316,50.000000,5.505683,-0.951867,0.706105,0.000000,11.492080,-0.184589,-0.002159,1.000000,0.707084,-0.153081,3650.351461,-1.015683,1.000000,0.000000,0.166309,0.000000,62.664043,381.044739,0.694039,-0.004239,0.770592,-0.005673,0.000000,0.000000,0.638345,9.844026,-7380.497721,-1.326792,-0.983388,0.135315,0.508133,-1.533555,100.000000,0.000000,10.572688,0.000000,0.000000,0.000000,0.951883
-0.177870,0.164197,-0.121360,0.000000,0.117542,9.211797,0.706073,-6795364291.041345,0.048773,-0.141362,0.190659,-6795364290.951345,0.000000,-0.137412,-0.196806,0.636311,9.899033,0.000000,0.041263,0.000000,5462.927704,0.117176,-6795364291.041345,-0.004211,9.239312,8.000000,5.731769,0.698365,0.000000,360.000000,-6795364291.001345,0.698280,50.000000,5.118626,-0.950978,0.706095,0.000000,11.496498,-0.184639,-0.002159,1.000000,0.707085,-0.153752,3575.854492,-1.015683,1.000000,0.000000,0.167933,0.000000,62.664043,381.020996,0.694016,-0.004239,0.740074,-0.005608,0.000000,0.000000,0.640889,9.866455,-7373.073024,-1.326792,-0.982452,0.135432,0.508133,-1.518296,100.000000,0.000000,10.587683,0.000000,0.000000,0.000000,0.951754
-0.177722,0.166281,-0.126724,0.000000,0.117803,9.233981,0.706060,-6795364290.931345,0.048773,-0.140955,0.192198,-6795364290.901345,0.000000,-0.147980,-0.196844,0.636311,9.920379,0.000000,0.041263,0.000000,5568.273417,0.117445,-6795364291.041345,-0.004212,9.260849,8.000000,5.733010,0.698333,0.000000,360.000000,-6795364290.951345,0.698249,50.000000,5.118626,-0.952123,0.706083,0.000000,11.490467,-0.184613,-0.002159,1.000000,0.707084,-0.153651,3516.256917,-1.015683,1.000000,0.000000,0.170044,0.000000,62.664043,381.020996,0.694035,-0.004241,0.757876,-0.005634,0.000000,0.000000,0.658691,9.888360,-7365.648326,-1.326792,-0.984486,0.135334,0.508133,-1.525925,100.000000,0.000000,10.577465,0.000000,0.000000,0.000000,0.951840
-0.177327,0.168704,-0.132214,0.000000,0.118052,9.255310,0.706045,-6795364290.931345,0.048773,-0.140507,0.205748,-6795364290.851345,0.000000,-0.157740,-0.196917,0.636311,9.940711,0.000000,0.041263,0.000000,5643.520355,0.117700,-6795364290.931345,-0.004211,9.281478,8.000000,5.734534,0.698305,0.000000,0.000000,-6795364290.901345,0.698222,50.000000,5.018260,-0.951412,0.706068,0.000000,11.497802,-0.184567,-0.002159,1.000000,0.707083,-0.153813,3531.156311,-1.015683,1.000000,0.000000,0.172503,0.000000,62.664043,381.020996,0.694043,-0.004242,0.762963,-0.005764,0.000000,0.000000,0.667592,9.908957,-7328.524836,-1.326792,-0.982940,0.135295,0.508133,-1.545000,100.000000,0.000000,10.563712,0.000000,0.000000,0.000000,0.951767
-0.177387,0.170204,-0.136428,0.000000,0.118295,9.275574,0.706036,-6795364290.841345,0.048773,-0.140751,0.206197,-6795364290.801345,0.000000,-0.139884,-0.196895,0.636311,9.960771,0.000000,0.041263,0.000000,5643.520355,0.117947,-6795364290.931345,-0.004214,9.301299,8.000000,5.736285,0.698272,0.000000,0.000000,-6795364290.851345,0.698190,50.000000,5.018260,-0.951446,0.706059,0.000000,11.498758,-0.184545,-0.002159,1.000000,0.707083,-0.153732,3501.357524,-1.015683,1.000000,0.000000,0.174024,0.000000,62.664043,381.020996,0.694044,-0.004245,0.768049,-0.005782,0.000000,0.000000,0.638345,9.929408,-7232.003764,-1.326792,-0.983306,0.135289,0.508133,-1.538642,100.000000,0.000000,10.561753,0.000000,0.000000,0.000000,0.951736
-0.178352,0.171399,-0.118263,0.000000,0.118536,9.296257,0.706028,-6795364290.841345,0.048773,-0.142155,0.229383,-6795364290.751345,0.000000,-0.138181,-0.196880,0.636311,9.979357,0.000000,0.041263,0.000000,5598.372192,0.118188,-6795364290.841345,-0.004204,9.322411,8.000000,5.736790,0.698239,0.000000,360.000000,-6795364290.801345,0.698156,50.000000,5.820604,-0.950998,0.706052,0.000000,11.500593,-0.184675,-0.002159,1.000000,0.707085,-0.153752,3553.505402,-1.015683,1.000000,0.000000,0.175245,0.000000,62.664043,381.097565,0.693992,-0.004231,0.740074,-0.005533,0.000000,0.000000,0.640889,9.948336,-7306.250743,-1.326792,-0.982696,0.135555,0.508133,-1.571703,100.000000,0.000000,10.603922,0.000000,0.000000,0.000000,0.951643
-0.177853,0.172885,-0.136130,0.000000,0.118769,9.316530,0.706019,-6795364290.741345,0.048773,-0.140996,0.207662,-6795364290.701345,0.000000,-0.140736,-0.196118,0.636311,9.997997,0.000000,0.041263,0.000000,5508.075867,0.118431,-6795364290.841345,-0.004202,9.342106,8.000000,5.736177,0.698207,0.000000,359.999999,-6795364290.751345,0.698126,48.000000,5.820604,-0.951128,0.706043,0.000000,11.470508,-0.184670,-0.002159,1.000000,0.707086,-0.152633,3575.854492,-1.015683,1.000000,0.000000,0.176742,0.000000,62.664043,381.097565,0.694038,-0.004226,0.773136,-0.005401,0.000000,0.000000,0.648518,9.967971,-7335.949534,-1.326792,-0.982981,0.135321,0.508133,-1.531012,96.000000,0.000000,10.595233,0.000000,0.000000,0.000000,0.951597
-0.177974,0.173964,-0.198161,0.000000,0.118977,9.333056,0.706013,-6795364290.741345,0.048773,-0.141362,0.213814,-6795364290.651345,0.000000,-0.133947,-0.196303,0.636311,10.015905,0.000000,0.041263,0.000000,5643.520355,0.118643,-6795364290.741345,-0.004215,9.358275,8.000000,5.737413,0.698178,0.000000,360.000000,-6795364290.701345,0.698097,48.000000,5.706475,-0.951613,0.706036,0.000000,11.464820,-0.184693,-0.002159,1.000000,0.707086,-0.153203,3531.156311,-1.015683,1.000000,0.000000,0.177834,0.000000,62.664043,381.097565,0.694046,-0.004239,0.854518,-0.005374,0.000000,0.000000,0.640889,9.986361,-7417.621211,-1.326792,-0.983673,0.135278,0.508133,-1.548814,96.000000,0.000000,10.593869,0.000000,0.000000,0.000000,0.951620
-0.178522,0.176190,-0.178854,0.000000,0.119190,9.350400,0.705999,-6795364290.641345,0.048773,-0.142135,0.219984,-6795364290.601345,0.000000,-0.158879,-0.196922,0.636311,10.033458,0.000000,0.041263,0.000000,5508.075867,0.118855,-6795364290.741345,-0.004218,9.375768,8.000000,5.736513,0.698156,0.000000,359.999998,-6795364290.651345,0.698074,48.000000,5.706475,-0.951234,0.706023,0.000000,11.489931,-0.184803,-0.002159,1.000000,0.707086,-0.154057,3590.753886,-1.015683,1.000000,0.000000,0.180108,0.000000,62.664043,381.097565,0.693987,-0.004242,0.798568,-0.005376,0.000000,0.000000,0.676494,10.003761,-7276.551951,-1.326792,-0.982981,0.135580,0.508133,-1.556444,96.000000,0.000000,10.618686,0.000000,0.000000,0.000000,0.951565
-0.177829,0.178469,-0.187682,0.000000,0.119404,9.367469,0.705985,-6795364290.641345,0.048773,-0.140873,0.187510,-6795364290.551345,0.000000,-0.155342,-0.196952,0.636311,10.052428,0.000000,0.041263,0.000000,5620.946274,0.119075,-6795364290.641345,-0.004234,9.392058,8.000000,5.736589,0.698132,0.000000,360.000000,-6795364290.601345,0.698052,48.000000,5.594583,-0.951387,0.706009,0.000000,11.498487,-0.184769,-0.002159,1.000000,0.707085,-0.153813,3598.203583,-1.015683,1.000000,0.000000,0.182422,0.000000,62.664043,381.097565,0.694003,-0.004261,0.820185,-0.005564,0.000000,0.000000,0.663778,10.022943,-7373.073024,-1.326792,-0.983306,0.135499,0.508133,-1.506851,96.000000,0.000000,10.596724,0.000000,0.000000,0.000000,0.951553
-0.177411,0.181708,-0.158285,0.000000,0.119620,9.385407,0.705965,-6795364290.531345,0.048773,-0.140548,0.176156,-6795364290.501345,0.000000,-0.173590,-0.196307,0.636311,10.070902,0.000000,0.041263,0.000000,5493.026479,0.119302,-6795364290.641345,-0.004247,9.409102,8.000000,5.735430,0.698114,0.000000,359.999997,-6795364290.551345,0.698035,48.000000,5.594583,-0.951809,0.705989,0.000000,11.472639,-0.184699,-0.002159,1.000000,0.707085,-0.152837,3605.653280,-1.015683,1.000000,0.000000,0.185706,0.000000,62.664043,381.097565,0.694065,-0.004273,0.773136,-0.005570,0.000000,0.000000,0.689210,10.042322,-7261.702555,-1.326792,-0.983795,0.135180,0.508133,-1.505580,96.000000,0.000000,10.569896,0.000000,0.000000,0.000000,0.951597
-0.177835,0.184486,-0.155115,0.000000,0.119829,9.402539,0.705948,-6795364290.531345,0.048773,-0.141362,0.184818,-6795364290.451345,0.000000,-0.166798,-0.195974,0.636311,10.088230,0.000000,0.041263,0.000000,5462.927704,0.119516,-6795364290.531345,-0.004256,9.426098,8.000000,5.733323,0.698094,0.000000,0.000000,-6795364290.501345,0.698016,48.000000,5.561004,-0.951668,0.705972,0.000000,11.452145,-0.184722,-0.002159,1.000000,0.707086,-0.152654,3665.250854,-1.015683,1.000000,0.000000,0.188531,0.000000,62.664043,381.104034,0.694077,-0.004279,0.782037,-0.005381,0.000000,0.000000,0.671407,10.060423,-7328.524836,-1.326792,-0.983428,0.135118,0.508133,-1.522111,96.000000,0.000000,10.580176,0.000000,0.000000,0.000000,0.951598
-0.177859,0.188071,-0.136440,0.000000,0.120039,9.420623,0.705925,-6795364290.441345,0.048773,-0.141199,0.191068,-6795364290.401345,0.000000,-0.185381,-0.196542,0.636311,10.105061,0.000000,0.041263,0.000000,5628.470968,0.119729,-6795364290.531345,-0.004253,9.443880,8.000000,5.733861,0.698080,0.000000,360.000000,-6795364290.451345,0.698002,48.000000,5.561004,-0.951822,0.705950,0.000000,11.467345,-0.184723,-0.002159,1.000000,0.707086,-0.153610,3590.753886,-1.015683,1.000000,0.000000,0.192185,0.000000,62.664043,381.104034,0.694056,-0.004277,0.755333,-0.005456,0.000000,0.000000,0.699383,10.077288,-7306.250743,-1.326792,-0.983754,0.135228,0.508133,-1.528469,96.000000,0.000000,10.583077,0.000000,0.000000,0.000000,0.951627
-0.177362,0.190539,-0.153487,0.000000,0.120245,9.437367,0.705910,-6795364290.441345,0.048773,-0.140446,0.176276,-6795364290.351345,0.000000,-0.161543,-0.197162,0.636311,10.123002,0.000000,0.041263,0.000000,5598.372192,0.119938,-6795364290.441345,-0.004262,9.459848,8.000000,5.734615,0.698060,0.000000,0.000002,-6795364290.401345,0.697981,48.000000,5.451965,-0.952189,0.705935,0.000000,11.494386,-0.184642,-0.002159,1.000000,0.707083,-0.154241,3553.505402,-1.015683,1.000000,0.000000,0.194695,0.000000,62.664043,381.104034,0.694050,-0.004292,0.789666,-0.005760,0.000000,0.000000,0.659963,10.095042,-7328.524836,-1.326792,-0.984222,0.135257,0.508133,-1.503037,96.000000,0.000000,10.560922,0.000000,0.000000,0.000000,0.951699
-0.177703,0.192191,-0.146800,0.000000,0.120441,9.453533,0.705900,-6795364290.331345,0.048773,-0.141158,0.200551,-6795364290.301345,0.000000,-0.149882,-0.196803,0.636311,10.139347,0.000000,0.041263,0.000000,5523.125254,0.120139,-6795364290.441345,-0.004268,9.475815,8.000000,5.734355,0.698036,0.000000,0.000001,-6795364290.351345,0.697958,48.000000,5.451965,-0.952320,0.705925,0.000000,11.486667,-0.184639,-0.002159,1.000000,0.707084,-0.153447,3575.854492,-1.015683,1.000000,0.000000,0.196374,0.000000,62.664043,381.104034,0.694052,-0.004296,0.773136,-0.005674,0.000000,0.000000,0.651062,10.111879,-7350.798930,-1.326792,-0.984242,0.135248,0.508133,-1.543728,96.000000,0.000000,10.567158,0.000000,0.000000,0.000000,0.951767
-0.177190,0.194190,-0.132897,0.000000,0.120640,9.470264,0.705888,-6795364290.331345,0.048773,-0.140385,0.205585,-6795364290.251345,0.000000,-0.158458,-0.197184,0.636311,10.155648,0.000000,0.041263,0.000000,5462.927704,0.120338,-6795364290.331345,-0.004266,9.492142,8.000000,5.732710,0.698014,0.000000,0.000001,-6795364290.301345,0.697936,48.000000,5.877898,-0.950285,0.705913,0.000000,11.516483,-0.184604,-0.002159,1.000000,0.707082,-0.154302,3642.901764,-1.015683,1.000000,0.000000,0.198412,0.000000,62.664043,381.149323,0.694021,-0.004299,0.755333,-0.005880,0.000000,0.000000,0.667592,10.127904,-7484.443492,-1.326792,-0.981231,0.135407,0.508133,-1.541185,96.000000,0.000000,10.563583,0.000000,0.000000,0.000000,0.951531
-0.177385,0.196436,-0.146103,0.000000,0.120826,9.485983,0.705874,-6795364290.241345,0.048773,-0.140800,0.219664,-6795364290.201345,0.000000,-0.166595,-0.197172,0.636311,10.170886,0.000000,0.041263,0.000000,6275.594635,0.120528,-6795364290.331345,-0.004268,9.507538,8.000000,5.734077,0.697995,0.000000,0.000000,-6795364290.251345,0.697917,48.000000,5.496228,-0.951249,0.705900,0.000000,11.516977,-0.184580,-0.002159,1.000000,0.707082,-0.154009,3944.614487,-1.015683,1.000000,0.000000,0.200697,0.000000,62.664043,381.126678,0.694021,-0.004300,0.779748,-0.005886,0.000000,0.000000,0.675985,10.143442,-8275.217320,-1.326792,-0.983526,0.135408,0.508133,-1.559496,96.000000,0.000000,10.563154,0.000000,0.000000,0.000000,0.951544
-0.177598,0.204881,-0.170623,0.000000,0.120926,9.494454,0.705821,-6795364290.141345,0.048773,-0.141057,0.186764,-6795364290.111345,0.000000,-0.174031,-0.197009,0.636311,10.178903,0.000000,0.041263,0.000000,5598.372192,0.120629,-6795364290.241345,-0.004276,9.516049,8.000000,5.735098,0.698030,0.000000,0.000000,-6795364290.201345,0.697952,46.000000,5.496228,-0.951009,0.705848,0.000000,11.512214,-0.184595,-0.002159,1.000000,0.707083,-0.153813,3531.156311,-1.015683,1.000000,0.000000,0.209312,0.000000,61.351711,381.126678,0.694014,-0.004306,0.808741,-0.005792,0.000000,0.000000,0.686666,10.151722,-7261.702555,-1.326792,-0.982757,0.135442,0.508133,-1.506851,92.000000,0.000000,10.573541,0.000000,0.000000,0.000000,0.951481
-0.178804,0.207936,-0.119277,0.000000,0.121139,9.511419,0.705802,-6795364290.141345,0.048773,-0.142705,0.166221,-6795364290.061345,0.000000,-0.178644,-0.197345,0.636311,10.196250,0.000000,0.041263,0.000000,5530.649948,0.120839,-6795364290.141345,-0.004283,9.533707,8.000000,5.736396,0.698013,0.000000,359.999998,-6795364290.111345,0.697934,46.000000,5.388459,-0.951082,0.705830,0.000000,11.521780,-0.184770,-0.002159,1.000000,0.707085,-0.154363,3464.109039,-1.015683,1.000000,0.000000,0.212436,0.000000,61.351711,381.126678,0.693942,-0.004308,0.724815,-0.005532,0.000000,0.000000,0.686666,10.169229,-7283.976649,-1.326792,-0.983062,0.135812,0.508133,-1.491592,92.000000,0.000000,10.625194,0.000000,0.000000,0.000000,0.951444
-0.177848,0.209631,-0.120512,0.000000,0.121335,9.528781,0.705792,-6795364290.051345,0.048773,-0.140751,0.186862,-6795364290.011345,0.000000,-0.155348,-0.196877,0.636311,10.212038,0.000000,0.041263,0.000000,5493.026479,0.121045,-6795364290.141345,-0.004280,9.550145,8.000000,5.736537,0.697988,0.000000,359.999997,-6795364290.061345,0.697910,46.000000,5.388459,-0.951802,0.705819,0.000000,11.501721,-0.184718,-0.002159,1.000000,0.707085,-0.153488,3516.256917,-1.015683,1.000000,0.000000,0.214147,0.000000,61.351711,381.126678,0.694000,-0.004306,0.750247,-0.005587,0.000000,0.000000,0.651062,10.185749,-7365.648326,-1.326792,-0.983957,0.135516,0.508133,-1.528469,92.000000,0.000000,10.596270,0.000000,0.000000,0.000000,0.951511
-0.178770,0.210950,-0.142964,0.000000,0.121530,9.544035,0.705784,-6795364290.051345,0.048773,-0.142521,0.161998,-6795364289.961345,0.000000,-0.144252,-0.196948,0.636311,10.228716,0.000000,0.041263,0.000000,5620.946274,0.121242,-6795364290.051345,-0.004293,9.565676,8.000000,5.736575,0.697962,0.000000,360.000000,-6795364290.011345,0.697884,46.000000,5.523847,-0.951763,0.705811,0.000000,11.497489,-0.184854,-0.002159,1.000000,0.707086,-0.153813,3598.203583,-1.015683,1.000000,0.000000,0.215493,0.000000,61.351711,381.147186,0.693970,-0.004315,0.782037,-0.005381,0.000000,0.000000,0.648518,10.202854,-7261.702555,-1.326792,-0.983673,0.135667,0.508133,-1.483963,92.000000,0.000000,10.625423,0.000000,0.000000,0.000000,0.951534
-0.177955,0.212371,-0.167299,0.000000,0.121700,9.558374,0.705775,-6795364289.941345,0.048773,-0.140914,0.210065,-6795364289.911345,0.000000,-0.154824,-0.197519,0.636311,10.243049,0.000000,0.041263,0.000000,5598.372192,0.121415,-6795364290.051345,-0.004294,9.579189,8.000000,5.738407,0.697941,0.000000,0.000002,-6795364289.961345,0.697863,46.000000,5.523847,-0.952105,0.705803,0.000000,11.517405,-0.184808,-0.002159,1.000000,0.707084,-0.154586,3456.659342,-1.015683,1.000000,0.000000,0.216934,0.000000,61.351711,381.147186,0.693979,-0.004322,0.806197,-0.005671,0.000000,0.000000,0.666321,10.217073,-7321.100138,-1.326792,-0.984161,0.135624,0.508133,-1.564074,92.000000,0.000000,10.598405,0.000000,0.000000,0.000000,0.951606
-0.177595,0.213035,-0.170328,0.000000,0.121856,9.571603,0.705771,-6795364289.941345,0.048773,-0.140751,0.230435,-6795364289.861345,0.000000,-0.143280,-0.197407,0.636311,10.256240,0.000000,0.041263,0.000000,5530.649948,0.121577,-6795364289.941345,-0.004297,9.591694,8.000000,5.737521,0.697917,0.000000,0.000001,-6795364289.911345,0.697840,46.000000,5.250611,-0.952142,0.705799,0.000000,11.519164,-0.184751,-0.002159,1.000000,0.707083,-0.154180,3598.203583,-1.015683,1.000000,0.000000,0.217602,0.000000,61.351711,381.133148,0.694004,-0.004327,0.801111,-0.005824,0.000000,0.000000,0.644704,10.230496,-7350.798930,-1.326792,-0.984039,0.135495,0.508133,-1.571703,92.000000,0.000000,10.575380,0.000000,0.000000,0.000000,0.951661
-0.177556,0.213580,-0.172811,0.000000,0.122018,9.583964,0.705768,-6795364289.851345,0.048773,-0.140873,0.197522,-6795364289.811345,0.000000,-0.135479,-0.197438,0.636311,10.270918,0.000000,0.041263,0.000000,5508.075867,0.121743,-6795364289.941345,-0.004313,9.603697,8.000000,5.737654,0.697891,0.000000,0.000000,-6795364289.861345,0.697815,46.000000,5.250611,-0.951755,0.705795,0.000000,11.524083,-0.184721,-0.002159,1.000000,0.707082,-0.154302,3516.256917,-1.015683,1.000000,0.000000,0.218151,0.000000,61.351711,381.133148,0.694004,-0.004345,0.803654,-0.005889,0.000000,0.000000,0.640889,10.245374,-7291.401347,-1.326792,-0.983469,0.135491,0.508133,-1.515753,92.000000,0.000000,10.569791,0.000000,0.000000,0.000000,0.951654
-0.178109,0.214695,-0.169430,0.000000,0.122191,9.596243,0.705761,-6795364289.851345,0.048773,-0.141728,0.154415,-6795364289.761345,0.000000,-0.140012,-0.196708,0.636311,10.286881,0.000000,0.041263,0.000000,5575.798111,0.121919,-6795364289.851345,-0.004342,9.616244,8.000000,5.738469,0.697867,0.000000,0.000002,-6795364289.811345,0.697791,46.000000,4.323035,-0.951118,0.705789,0.000000,11.500755,-0.184790,-0.002159,1.000000,0.707085,-0.153264,3508.807220,-1.015683,1.000000,0.000000,0.219286,0.000000,61.351711,381.063080,0.694002,-0.004367,0.797296,-0.005586,0.000000,0.000000,0.652333,10.262138,-7350.798930,-1.326792,-0.982696,0.135505,0.508133,-1.468703,92.000000,0.000000,10.595515,0.000000,0.000000,0.000000,0.951573
-0.177789,0.216144,-0.175197,0.000000,0.122352,9.608567,0.705752,-6795364289.751345,0.048773,-0.141077,0.186444,-6795364289.711345,0.000000,-0.152685,-0.197074,0.636311,10.301215,0.000000,0.041263,0.000000,5553.224030,0.122081,-6795364289.851345,-0.004356,9.628392,8.000000,5.738493,0.697848,0.000000,0.000000,-6795364289.761345,0.697772,46.000000,4.323035,-0.949965,0.705780,0.000000,11.517967,-0.184808,-0.002159,1.000000,0.707084,-0.154180,3546.055705,-1.015683,1.000000,0.000000,0.220763,0.000000,61.351711,381.063080,0.693977,-0.004383,0.806197,-0.005671,0.000000,0.000000,0.666321,10.276414,-7350.798930,-1.326792,-0.981312,0.135631,0.508133,-1.533555,92.000000,0.000000,10.598985,0.000000,0.000000,0.000000,0.951363
-0.177211,0.216766,-0.169697,0.000000,0.122511,9.620844,0.705748,-6795364289.751345,0.048773,-0.140385,0.183543,-6795364289.661345,0.000000,-0.135812,-0.197008,0.636311,10.315689,0.000000,0.041263,0.000000,5575.798111,0.122244,-6795364289.751345,-0.004372,9.640049,8.000000,5.738898,0.697823,0.000000,0.000001,-6795364289.711345,0.697748,46.000000,4.238270,-0.949465,0.705776,0.000000,11.525362,-0.184758,-0.002159,1.000000,0.707083,-0.153935,3531.156311,-1.015683,1.000000,0.000000,0.221389,0.000000,61.351711,381.063080,0.693991,-0.004401,0.797296,-0.005832,0.000000,0.000000,0.637074,10.291032,-7306.250743,-1.326792,-0.981048,0.135562,0.508133,-1.514481,92.000000,0.000000,10.580223,0.000000,0.000000,0.000000,0.951152
-0.177587,0.217793,-0.166024,0.000000,0.122661,9.632761,0.705741,-6795364289.641345,0.048773,-0.141036,0.184799,-6795364289.611345,0.000000,-0.144312,-0.196409,0.636311,10.328918,0.000000,0.041263,0.000000,5523.125254,0.122404,-6795364289.751345,-0.004388,9.651557,8.000000,5.738016,0.697802,0.000000,359.999999,-6795364289.661345,0.697728,46.000000,4.238270,-0.951859,0.705770,0.000000,11.484136,-0.184724,-0.002159,1.000000,0.707084,-0.152918,3590.753886,-1.015683,1.000000,0.000000,0.222424,0.000000,59.711292,381.063080,0.694049,-0.004413,0.793481,-0.005630,0.000000,0.000000,0.656148,10.305372,-7395.347117,-1.326792,-0.984731,0.135261,0.508133,-1.518296,92.000000,0.000000,10.571741,0.000000,0.000000,0.000000,0.951325
-0.177692,0.218598,-0.167349,0.000000,0.122809,9.644167,0.705736,-6795364289.641345,0.048773,-0.141118,0.193397,-6795364289.561345,0.000000,-0.141729,-0.197105,0.636311,10.341932,0.000000,0.041263,0.000000,5598.372192,0.122551,-6795364289.641345,-0.004398,9.662907,8.000000,5.737411,0.697781,0.000000,359.999999,-6795364289.611345,0.697707,46.000000,4.155167,-0.950965,0.705765,0.000000,11.506415,-0.184736,-0.002159,1.000000,0.707084,-0.154302,3620.552673,-1.015683,1.000000,0.000000,0.223247,0.000000,59.711292,381.063080,0.694013,-0.004424,0.797296,-0.005715,0.000000,0.000000,0.648518,10.318197,-7261.702555,-1.326792,-0.982452,0.135447,0.508133,-1.529740,92.000000,0.000000,10.580286,0.000000,0.000000,0.000000,0.951251
-0.177662,0.218797,-0.161243,0.000000,0.122944,9.655714,0.705735,-6795364289.551345,0.048773,-0.140996,0.227394,-6795364289.511345,0.000000,-0.135409,-0.196697,0.636311,10.352857,0.000000,0.041263,0.000000,5538.174642,0.122690,-6795364289.641345,-0.004397,9.674204,8.000000,5.737636,0.697757,0.000000,360.000000,-6795364289.561345,0.697684,46.000000,4.155167,-0.951261,0.705764,0.000000,11.494518,-0.184722,-0.002159,1.000000,0.707084,-0.153366,3531.156311,-1.015683,1.000000,0.000000,0.223443,0.000000,59.711292,381.063080,0.694028,-0.004422,0.788395,-0.005647,0.000000,0.000000,0.638345,10.329587,-7395.347117,-1.326792,-0.983225,0.135370,0.508133,-1.574246,92.000000,0.000000,10.579339,0.000000,0.000000,0.000000,0.951264
-0.177676,0.220105,-0.174689,0.000000,0.123078,9.666543,0.705727,-6795364289.551345,0.048773,-0.141057,0.208194,-6795364289.461345,0.000000,-0.154773,-0.196650,0.636311,10.364279,0.000000,0.041263,0.000000,5575.798111,0.122827,-6795364289.551345,-0.004405,9.684878,8.000000,5.736613,0.697741,0.000000,360.000000,-6795364289.511345,0.697668,46.000000,4.974435,-0.950897,0.705756,0.000000,11.491983,-0.184726,-0.002159,1.000000,0.707085,-0.153508,3642.901764,-1.015683,1.000000,0.000000,0.224774,0.000000,59.711292,381.139618,0.694027,-0.004429,0.808741,-0.005613,0.000000,0.000000,0.671407,10.341295,-7395.347117,-1.326792,-0.982574,0.135373,0.508133,-1.533555,92.000000,0.000000,10.582421,0.000000,0.000000,0.000000,0.951212
-0.178157,0.221027,-0.172707,0.000000,0.123215,9.677251,0.705722,-6795364289.451345,0.048773,-0.141728,0.203012,-6795364289.411345,0.000000,-0.146624,-0.197002,0.636311,10.376006,0.000000,0.041263,0.000000,5613.421580,0.122963,-6795364289.551345,-0.004412,9.695749,8.000000,5.736298,0.697723,0.000000,359.999999,-6795364289.461345,0.697650,44.000000,4.974435,-0.951115,0.705750,0.000000,11.502785,-0.184789,-0.002159,1.000000,0.707085,-0.154017,3620.552673,-1.015683,1.000000,0.000000,0.225716,0.000000,59.711292,381.139618,0.693992,-0.004435,0.801111,-0.005563,0.000000,0.000000,0.651062,10.353040,-7335.949534,-1.326792,-0.983103,0.135553,0.508133,-1.533555,88.000000,0.000000,10.601263,0.000000,0.000000,0.000000,0.951212
-0.177773,0.223148,-0.141293,0.000000,0.123361,9.689917,0.705708,-6795364289.451345,0.048773,-0.140996,0.197777,-6795364289.361345,0.000000,-0.170481,-0.196982,0.636311,10.387696,0.000000,0.041263,0.000000,5598.372192,0.123112,-6795364289.451345,-0.004409,9.708042,8.000000,5.736514,0.697710,0.000000,360.000000,-6795364289.411345,0.697637,44.000000,4.876897,-0.950591,0.705737,0.000000,11.509948,-0.184785,-0.002159,1.000000,0.707084,-0.153874,3575.854492,-1.015683,1.000000,0.000000,0.227876,0.000000,59.711292,381.139618,0.693991,-0.004434,0.755333,-0.005644,0.000000,0.000000,0.686666,10.364823,-7373.073024,-1.326792,-0.982208,0.135560,0.508133,-1.529740,88.000000,0.000000,10.595255,0.000000,0.000000,0.000000,0.951127
-0.177424,0.222750,-0.145368,0.000000,0.123489,9.701551,0.705711,-6795364289.351345,0.048773,-0.140589,0.225946,-6795364289.311345,0.000000,-0.124687,-0.196570,0.636311,10.397732,0.000000,0.041263,0.000000,5568.273417,0.123248,-6795364289.451345,-0.004403,9.718968,8.000000,5.735623,0.697684,0.000000,359.999998,-6795364289.361345,0.697612,44.000000,4.876897,-0.951613,0.705740,0.000000,11.488085,-0.184716,-0.002159,1.000000,0.707084,-0.153203,3635.452067,-1.015683,1.000000,0.000000,0.227459,0.000000,59.711292,381.139618,0.694045,-0.004428,0.778222,-0.005656,0.000000,0.000000,0.610370,10.375509,-7335.949534,-1.326792,-0.983876,0.135283,0.508133,-1.569160,88.000000,0.000000,10.571484,0.000000,0.000000,0.000000,0.951220
-0.177207,0.224583,-0.165042,0.000000,0.123621,9.711901,0.705700,-6795364289.351345,0.048773,-0.140507,0.175307,-6795364289.261345,0.000000,-0.161173,-0.196337,0.636311,10.409574,0.000000,0.041263,0.000000,5575.798111,0.123385,-6795364289.351345,-0.004417,9.728957,8.000000,5.735415,0.697671,0.000000,359.999999,-6795364289.311345,0.697600,44.000000,5.035003,-0.950527,0.705728,0.000000,11.481224,-0.184676,-0.002159,1.000000,0.707084,-0.153142,3598.203583,-1.015683,1.000000,0.000000,0.229322,0.000000,59.711292,381.161194,0.694062,-0.004442,0.801111,-0.005661,0.000000,0.000000,0.686666,10.387732,-7395.347117,-1.326792,-0.981841,0.135195,0.508133,-1.487777,88.000000,0.000000,10.563751,0.000000,0.000000,0.000000,0.951104
-0.177482,0.225672,-0.173458,0.000000,0.123747,9.721341,0.705693,-6795364289.251345,0.048773,-0.140996,0.194852,-6795364289.211345,0.000000,-0.150223,-0.197041,0.636311,10.420878,0.000000,0.041263,0.000000,5538.174642,0.123509,-6795364289.351345,-0.004428,9.738427,8.000000,5.735636,0.697656,0.000000,359.999999,-6795364289.261345,0.697584,44.000000,5.035003,-0.950263,0.705722,0.000000,11.508900,-0.184687,-0.002159,1.000000,0.707083,-0.154261,3546.055705,-1.015683,1.000000,0.000000,0.230436,0.000000,59.711292,381.161194,0.694017,-0.004455,0.806197,-0.005765,0.000000,0.000000,0.653605,10.398702,-7410.196513,-1.326792,-0.982004,0.135428,0.508133,-1.536098,88.000000,0.000000,10.574657,0.000000,0.000000,0.000000,0.951008
-0.178111,0.227456,-0.146612,0.000000,0.123877,9.732286,0.705682,-6795364289.251345,0.048773,-0.141728,0.203550,-6795364289.161345,0.000000,-0.166299,-0.196575,0.636311,10.431018,0.000000,0.041263,0.000000,5620.946274,0.123640,-6795364289.251345,-0.004429,9.749579,8.000000,5.736739,0.697644,0.000000,0.000001,-6795364289.211345,0.697572,44.000000,4.936277,-0.951259,0.705711,0.000000,11.489784,-0.184747,-0.002159,1.000000,0.707085,-0.153203,3531.156311,-1.015683,1.000000,0.000000,0.232255,0.000000,59.711292,381.161194,0.694014,-0.004451,0.762963,-0.005515,0.000000,0.000000,0.679037,10.409441,-7417.621211,-1.326792,-0.983551,0.135442,0.508133,-1.541185,88.000000,0.000000,10.595973,0.000000,0.000000,0.000000,0.951076
